[
  { "id":"ugam-chatkal",   "nameUz":"Ugam-Chatkal milliy bog'i",    "nameRu":"Нац. парк Угам-Чаткал",      "nameEn":"Ugam-Chatkal National Park",    "provinceId":"tashkent",      "lat":41.500,"lng":70.200, "descUz":"574,5 ming gektar. G'arbiy Tyan-Shan ekotizimlari. Chimgan, Chatkal va Ugam tog' tizimlarini o'z ichiga oladi." },
  { "id":"zarafshon-res",  "nameUz":"Zarafshon o'rmon zaxirasi",    "nameRu":"Зарафшанский заповедник",     "nameEn":"Zerafshan Forest Reserve",      "provinceId":"bukhara",       "lat":40.100,"lng":64.300, "descUz":"Zarafshon daryosi bo'yidagi tuqa o'rmonlar. Sug'diy sugroq (Populus pruinosa) va jiyda daraxtlari." },
  { "id":"nuratau-bio",    "nameUz":"Nuratau-Kizilqum biosfera zaxirasi","nameRu":"Биосф. заповедник Нуратау-Кызылкум","nameEn":"Nuratau-Kyzylkum Biosphere Reserve","provinceId":"navoi","lat":40.560,"lng":65.700, "descUz":"YUNESKO biosfera zaxirasi. Arxar, qoratekin, qorabosh lochin kabi noyob hayvonlar yashaydi." },
  { "id":"surxon-res",     "nameUz":"Surxon davlat zaxirasi",       "nameRu":"Сурханский заповедник",       "nameEn":"Surkhan State Reserve",         "provinceId":"surkhandarya",  "lat":38.100,"lng":67.000, "descUz":"Kobratog' va Boysuntov tog'larida. Leopard, giena, togdosh (ko'k qoʻy) kabi hayvonlar yashaydi." },
  { "id":"amudaryo-park",  "nameUz":"Amudaryo milliy bog'i",        "nameRu":"Нац. парк Амударья",          "nameEn":"Amu Darya National Park",       "provinceId":"khorezm",       "lat":41.800,"lng":60.600, "descUz":"Amudaryo bo'yidagi tuqa (tugay) o'rmonlarini saqlash maqsadida tashkil etilgan." },
  { "id":"baday-tugay",    "nameUz":"Baday-Tugay o'rmon massivi",   "nameRu":"Лесной массив Бадай-Тугай",   "nameEn":"Baday-Tugay Forest",            "provinceId":"karakalpakstan","lat":41.700,"lng":60.200, "descUz":"Qoraqalpog'istondagi Amudaryo delta tuqa o'rmonlari. Buxoro bug'usi yashaydi." },
  { "id":"kizilkum-res",   "nameUz":"Qizilqum davlat zaxirasi",     "nameRu":"Кызылкумский заповедник",     "nameEn":"Kyzylkum State Reserve",        "provinceId":"navoi",         "lat":41.000,"lng":64.000, "descUz":"Qizilqum cho'lidagi hayvonot va o'simlik turlarini saqlash uchun tashkil etilgan." },
  { "id":"kitob-geo",      "nameUz":"Kitob geologiya milliy bog'i", "nameRu":"Геологический нац. парк Китаб","nameEn":"Kitob Geological National Park","provinceId":"kashkadarya",   "lat":39.100,"lng":66.800, "descUz":"Qashqadaryo viloyatida. Paleontologik yodgorliklar va tog' o'rmonlarini o'z ichiga oladi." }
]
