[
  { "id":"chimgan",      "nameUz":"Chimgan tog'i",           "nameRu":"Горы Чимган",             "nameEn":"Chimgan Mountains",       "provinceId":"tashkent",      "lat":41.555,"lng":70.003, "descUz":"G'arbiy Tyan-Shan, 3309 m. Mashhur tog'-kurort hududi." },
  { "id":"beldersoy",    "nameUz":"Beldersoy tog'i",         "nameRu":"Горы Белдерсай",          "nameEn":"Beldersoy Mountains",     "provinceId":"tashkent",      "lat":41.580,"lng":70.060, "descUz":"Chimgan yaqinida, 2834 m. Qishki sport markazi." },
  { "id":"ugam",         "nameUz":"Ugam tog' tizimi",        "nameRu":"Хребет Угам",             "nameEn":"Ugam Range",              "provinceId":"tashkent",      "lat":41.630,"lng":69.600, "descUz":"G'arbiy Tyan-Shan tizimining bir qismi." },
  { "id":"pskem",        "nameUz":"Pskem tog' tizimi",       "nameRu":"Хребет Пскем",            "nameEn":"Pskem Range",             "provinceId":"tashkent",      "lat":41.840,"lng":70.100, "descUz":"Pskem daryosi havzasidagi baland tog' tizmasi." },
  { "id":"chatkal",      "nameUz":"Chatkal tog' tizimi",     "nameRu":"Чаткальский хребет",      "nameEn":"Chatkal Range",           "provinceId":"tashkent",      "lat":41.350,"lng":70.400, "descUz":"Milliy bog' hududi. Qirg'iziston chegarasi bo'ylab cho'zilgan." },
  { "id":"qurama",       "nameUz":"Qurama tog' tizimi",      "nameRu":"Хребет Кураминский",      "nameEn":"Kurama Range",            "provinceId":"tashkent",      "lat":40.800,"lng":69.900, "descUz":"Toshkent va Namangan viloyatlari chegarasida joylashgan." },
  { "id":"nurotau",      "nameUz":"Nurotau tog'lari",        "nameRu":"Горы Нуратау",            "nameEn":"Nuratau Mountains",       "provinceId":"navoi",         "lat":40.560,"lng":65.700, "descUz":"O'rta Osiyodagi eng izolyatsiyalangan tog' tizimi. Biosfera zaxirasi." },
  { "id":"zarafshon-r",  "nameUz":"Zarafshon tog' tizimi",  "nameRu":"Зарафшанский хребет",     "nameEn":"Zerafshan Range",         "provinceId":"samarkand",     "lat":39.700,"lng":67.200, "descUz":"Zarafshon daryosining manbai. Tojikiston bilan chegarada." },
  { "id":"turkiston-r",  "nameUz":"Turkiston tog' tizimi",  "nameRu":"Туркестанский хребет",    "nameEn":"Turkistan Range",         "provinceId":"samarkand",     "lat":39.500,"lng":67.500, "descUz":"Janubiy O'zbekistondagi yirik tog' tizmasi." },
  { "id":"hisor-r",      "nameUz":"Hisor tog' tizimi",      "nameRu":"Гиссарский хребет",       "nameEn":"Hissar Range",            "provinceId":"kashkadarya",   "lat":38.800,"lng":66.800, "descUz":"O'zbekiston va Tojikiston chegarasidagi baland tog' tizmasi." },
  { "id":"kuhitang",     "nameUz":"Ko'hitang tog'lari",     "nameRu":"Горы Кугитанг",           "nameEn":"Kugitang Mountains",      "provinceId":"surkhandarya",  "lat":38.100,"lng":66.800, "descUz":"3139 m. Surxondaryo viloyatidagi eng baland nuqta. Turkmaniston chegarasida." },
  { "id":"bobotog",      "nameUz":"Bobotog' tog'lari",      "nameRu":"Горы Бабатаг",            "nameEn":"Babatag Mountains",       "provinceId":"surkhandarya",  "lat":38.000,"lng":67.500, "descUz":"Surxondaryo janubidagi o'rta balandlikdagi tog' tizmasi." },
  { "id":"baysun-r",     "nameUz":"Boysung tog'lari",       "nameRu":"Байсунские горы",         "nameEn":"Baysun Mountains",        "provinceId":"surkhandarya",  "lat":38.200,"lng":67.200, "descUz":"Boysung tuman atrofidagi tog'li hudud. Qadimiy madaniyat maskani." },
  { "id":"aktosh",       "nameUz":"Aktosh cho'qqisi",       "nameRu":"Пик Актош",               "nameEn":"Aktosh Peak",             "provinceId":"namangan",      "lat":41.100,"lng":71.800, "descUz":"Namangan viloyatidagi tog' cho'qqisi." },
  { "id":"molguzar",     "nameUz":"Molguzar tog'lari",      "nameRu":"Горы Малгузар",           "nameEn":"Malguzar Mountains",      "provinceId":"jizzakh",       "lat":40.300,"lng":67.500, "descUz":"Jizzax viloyatidagi tog' tizmasi. Nurotau bilan tutashadi." }
]
